[
  {
    "name": "Akeneo",
    "id": 1,
    "link": "https://www.akeneo.com/fr/",
    "postalCode": "44000",
    "address": "2 Pl. Général Mellinet",
    "city": "Nantes",
    "latitude": 47.211666,
    "longitude": -1.5780146
  },
  {
    "name": "Atelier Iceberg",
    "id": 10
  },
  {
    "name": "Clever Age",
    "id": 6,
    "postalCode": 44000,
    "address": "Bâtiment 7, 4 Rue des Olivettes - Passage d'ouard",
    "city": "Nantes",
    "latitude": 47.2118285,
    "longitude": -1.5508309,
    "link": "https://www.clever-age.com/fr/"
  },
  {
    "name": "Eodim",
    "id": 9
  },
  {
    "name": "Epitech",
    "id": 2,
    "link": "https://www.epitech.eu/ecole-informatique-nantes/",
    "postalCode": "44000",
    "address": "18 Rue Flandres - Dunkerque 40",
    "city": "Nantes",
    "latitude": 47.2116262,
    "longitude": -1.5658967
  },
  {
    "name": "iAdvize",
    "id": 11,
    "link": "https://www.iadvize.com",
    "postalCode": 44000,
    "address": "9 Rue Nina Simone",
    "city": "Nantes",
    "latitude": 47.2172557,
    "longitude": -1.5343603
  },
  {
    "name": "KNPLabs",
    "id": 5
  },
  {
    "name": "La Cantine",
    "id": 4,
    "link": "https://www.lacantine.co/",
    "postalCode": "44200",
    "address": "40 Rue la Tour d'Auvergne",
    "city": "Nantes",
    "latitude": 47.20640020463858,
    "longitude": -1.5602729867411953
  },
  {
    "name": "Lucca",
    "id": 3,
    "link": "https://lucca.fr",
    "postalCode": "44000",
    "address": "3 Rue Michel Columb",
    "city": "Nantes",
    "latitude": 47.20695,
    "longitude": -1.5534403
  },
  {
    "name": "Smile",
    "id": 7
  },
  {
    "name": "Startup Palace",
    "id": 12
  },
  {
    "name": "Stereolux",
    "id": 8
  },
  {
    "name": "Zenika Nantes",
    "id": 37,
    "link": "https://zenika.com/agency/nantes",
    "postalCode": "44200",
    "address": "2ter Quai François Mitterrand",
    "city": "Nantes",
    "latitude": 47.207379655978336,
    "longitude": -1.555865637767108
  },
  {
    "name": "Lengow",
    "id": 13
  },
  {
    "name": "DojoCrea Nantes",
    "id": 14,
    "link": "http://www.dojonantes.fr/"
  },
  {
    "name": "La Fourchette",
    "id": 15,
    "link": "https://www.lafourchette.com/",
    "latitude": 47.2074047,
    "longitude": -1.5582155
  },
  {
    "name": "Groupe Creative",
    "id": 16
  },
  {
    "name": "UmanIT",
    "id": 17
  },
  {
    "name": "Externatic",
    "id": 18
  },
  {
    "name": "Lone Stone",
    "id": 19
  },
  {
    "name": "Le phare",
    "id": 20
  },
  {
    "name": "SNCF Connect & Tech",
    "id": 21,
    "link": "https://vous.sncf-connect.com/",
    "postalCode": "44000",
    "address": "16 rue de Cornulier",
    "city": "Nantes",
    "latitude": 47.2186596,
    "longitude": -1.5545694
  },
  {
    "name": "GraphDB",
    "id": 22
  },
  {
    "name": "READi Design Lab",
    "id": 23,
    "link": "https://www.lecolededesign.com/recherche-et-design-labs/readi-design-lab/"
  },
  {
    "id": 24,
    "name": "Pôle Emploi",
    "postalCode": 44000,
    "address": "2 rue Konrad Adénauer",
    "city": "Nantes",
    "latitude": 47.2087549,
    "longitude": -1.5381854,
    "link": "https://www.pole-emploi.fr/accueil/"
  },
  {
    "id": 25,
    "name": "Nickel",
    "link": "https://compte-nickel.fr/"
  },
  {
    "id": 26,
    "name": "Beekast",
    "postalCode": 44000,
    "address": "1-3 Rue Michel Columb",
    "city": "Nantes",
    "latitude": 47.2070383,
    "longitude": -1.5534138,
    "link": "https://www.beekast.com/fr"
  },
  {
    "id": 27,
    "name": "Gens de Confiance",
    "postalCode": 44000,
    "address": "16 Boulevard Gabriel Guist'Hau",
    "city": "Nantes",
    "latitude": 47.21620250000001,
    "longitude": -1.5653987,
    "link": "https://gensdeconfiance.fr/"
  },
  {
    "id": 28,
    "name": "Wild Code School",
    "link": "https://wildcodeschool.fr/",
    "postalCode": 44200,
    "address": "2 bis Quai François Mitterrand",
    "city": "Nantes",
    "latitude": 47.2071068,
    "longitude": -1.5555923
  },
  {
    "id": 29,
    "name": "Ippon",
    "link": "https://fr.ippon.tech/",
    "postalCode": 44200,
    "address": "3 allée Susan Brownell Anthony, ZAC des Prairies",
    "city": "Nantes",
    "latitude": 47.2037747,
    "longitude": -1.5687633
  },
  {
    "id": 30,
    "name": "UmanIT",
    "link": "https://www.umanit.fr/",
    "postalCode": 44000,
    "address": "13 Place Sophie Trébuchet",
    "city": "Nantes",
    "latitude": 47.2202226,
    "longitude": -1.5453091
  },
  {
    "id": 31,
    "name": "Talend SA (R&D Center)",
    "link": "http://www.talend.com/",
    "postalCode": 44200,
    "address": "89 Boulevard de la Prairie au Duc",
    "city": "Nantes",
    "latitude": 47.2038802,
    "longitude": -1.5670684
  },
  {
    "id": 32,
    "name": "SII",
    "link": "http://www.groupe-sii.com/fr",
    "postalCode": 44200,
    "address": "10 Rue Magdeleine",
    "city": "Nantes",
    "latitude": 47.2044435,
    "longitude": -1.5686195
  },
  {
    "id": 33,
    "name": "NantesJS",
    "link": "https://nantesjs.org"
  },
  {
    "id": 34,
    "name": "Doctolib",
    "link": "https://www.doctolib.fr"
  },
  {
    "id": 35,
    "name": "Shopopop",
    "link": "https://www.shopopop.com/",
    "postalCode": "44000",
    "address": "1 TER Mail Pablo Picasso",
    "city": "Nantes",
    "latitude": "47.2166537",
    "longitude": "-1.5353364"
  },
  {
    "id": 36,
    "name": "Niji",
    "link": "https://www.niji.fr/fr/",
    "postalCode": "44200",
    "address": "10 Rue Magdeleine",
    "city": "Nantes",
    "latitude": "47.2041778",
    "longitude": "-1.5683726"
  }
]
